{"type":"FeatureCollection","features":[{"type":"Feature","id":1,"geometry":{"type":"Point","coordinates":[30.390652522000039,50.457765736000056]},"properties":{"objectid":1,"globalid":"{0ea9d453-acaf-4fcf-acf5-26bbab1e7bbd}","code1":"mr03_112","name":"Святошин","name_eng":"Sviatoshyn","line":"Святошинсько-Броварська","line_eng":"Sviatoshynsko-Brovarska","transf_st":null}},{"type":"Feature","id":2,"geometry":{"type":"Point","coordinates":[30.355061622000051,50.46492889600006]},"properties":{"objectid":2,"globalid":"{dc971f06-65e7-493d-adaa-8cb423106531}","code1":"mr01_110","name":"Академмістечко","name_eng":"Akademmistechko","line":"Святошинсько-Броварська","line_eng":"Sviatoshynsko-Brovarska","transf_st":null}},{"type":"Feature","id":3,"geometry":{"type":"Point","coordinates":[30.365444108000077,50.456258097000045]},"properties":{"objectid":3,"globalid":"{c3a1cb27-d237-486e-90a5-8e4353b6af87}","code1":"mr02_111","name":"Житомирська","name_eng":"Zhytomyrska","line":"Святошинсько-Броварська","line_eng":"Sviatoshynsko-Brovarska","transf_st":null}},{"type":"Feature","id":4,"geometry":{"type":"Point","coordinates":[30.418705822000049,50.459272991000034]},"properties":{"objectid":4,"globalid":"{3b9c034f-441f-411a-be69-4dd2f3e85acd}","code1":"mr05_114","name":"Берестейська","name_eng":"Beresteiska","line":"Святошинсько-Броварська","line_eng":"Sviatoshynsko-Brovarska","transf_st":null}},{"type":"Feature","id":5,"geometry":{"type":"Point","coordinates":[30.448622912000076,50.45422986300008]},"properties":{"objectid":5,"globalid":"{2ec76936-19ff-49af-a897-07b830dde005}","code1":"mr06_115","name":"Шулявська","name_eng":"Shuliavska","line":"Святошинсько-Броварська","line_eng":"Sviatoshynsko-Brovarska","transf_st":null}},{"type":"Feature","id":6,"geometry":{"type":"Point","coordinates":[30.464234430000033,50.451117766000039]},"properties":{"objectid":6,"globalid":"{f6d8fbff-a9f8-4c19-b289-4d4db7ff0000}","code1":"mr07_116","name":"Політехнічний інститут","name_eng":"Politekhnichnyi instytut","line":"Святошинсько-Броварська","line_eng":"Sviatoshynsko-Brovarska","transf_st":null}},{"type":"Feature","id":7,"geometry":{"type":"Point","coordinates":[30.489776292000045,50.441384088000063]},"properties":{"objectid":7,"globalid":"{0157f63d-5969-49ce-a8c6-91cbcbae4166}","code1":"mr08_117","name":"Вокзальна","name_eng":"Vokzalna","line":"Святошинсько-Броварська","line_eng":"Sviatoshynsko-Brovarska","transf_st":null}},{"type":"Feature","id":8,"geometry":{"type":"Point","coordinates":[30.504455750000034,50.443196623000063]},"properties":{"objectid":8,"globalid":"{9100122b-e375-4656-b1ba-9dbff148e5a7}","code1":"mr09_118","name":"Університет","name_eng":"Universytet","line":"Святошинсько-Броварська","line_eng":"Sviatoshynsko-Brovarska","transf_st":null}},{"type":"Feature","id":9,"geometry":{"type":"Point","coordinates":[30.547150239000075,50.443057915000054]},"properties":{"objectid":9,"globalid":"{82d70efd-c26c-493f-aca3-ed6773503118}","code1":"mr12_121","name":"Арсенальна","name_eng":"Arsenalna","line":"Святошинсько-Броварська","line_eng":"Sviatoshynsko-Brovarska","transf_st":null}},{"type":"Feature","id":10,"geometry":{"type":"Point","coordinates":[30.559330301000045,50.441234607000069]},"properties":{"objectid":10,"globalid":"{d5db8459-5150-4631-8db6-b1e635b77f46}","code1":"mr13_122","name":"Дніпро","name_eng":"Dnipro","line":"Святошинсько-Броварська","line_eng":"Sviatoshynsko-Brovarska","transf_st":null}},{"type":"Feature","id":11,"geometry":{"type":"Point","coordinates":[30.598150350000026,50.45186242300008]},"properties":{"objectid":11,"globalid":"{935a5d71-4476-4bae-ad9e-c20c466aadd9}","code1":"mr15_124","name":"Лівобережна","name_eng":"Livoberezhna","line":"Святошинсько-Броварська","line_eng":"Sviatoshynsko-Brovarska","transf_st":null}},{"type":"Feature","id":12,"geometry":{"type":"Point","coordinates":[30.612954847000026,50.455964152000035]},"properties":{"objectid":12,"globalid":"{a5d54315-66a5-4877-bf6d-9e7402839fc8}","code1":"mr16_125","name":"Дарниця","name_eng":"Darnytsia","line":"Святошинсько-Броварська","line_eng":"Sviatoshynsko-Brovarska","transf_st":null}},{"type":"Feature","id":13,"geometry":{"type":"Point","coordinates":[30.63028907000006,50.459884388000035]},"properties":{"objectid":13,"globalid":"{47210b25-ef89-4d93-b7c9-5586a20e91bf}","code1":"mr17_126","name":"Чернігівська","name_eng":"Chernihivska","line":"Святошинсько-Броварська","line_eng":"Sviatoshynsko-Brovarska","transf_st":null}},{"type":"Feature","id":14,"geometry":{"type":"Point","coordinates":[30.515523882000025,50.444787309000048]},"properties":{"objectid":14,"globalid":"{3bfbcac5-3dc7-4712-a556-2e8f4155d415}","code1":"mr10_119","name":"Театральна","name_eng":"Teatralna","line":"Святошинсько-Броварська","line_eng":"Sviatoshynsko-Brovarska","transf_st":"mg04_314"}},{"type":"Feature","id":15,"geometry":{"type":"Point","coordinates":[30.515154550000034,50.445804204000069]},"properties":{"objectid":15,"globalid":"{6c243faf-8a61-4102-8e1f-4b292a49142a}","code1":"mg04_314","name":"Золоті Ворота","name_eng":"Zoloti Vorota","line":"Сирецько-Печерська","line_eng":"Syretsko-Pecherska","transf_st":"mr10_119"}},{"type":"Feature","id":16,"geometry":{"type":"Point","coordinates":[30.576882793000038,50.445975608000026]},"properties":{"objectid":16,"globalid":"{a3dbd9c9-fe09-4894-a54e-94d87133df8c}","code1":"mr14_123","name":"Гідропарк","name_eng":"Hidropark","line":"Святошинсько-Броварська","line_eng":"Sviatoshynsko-Brovarska","transf_st":null}},{"type":"Feature","id":17,"geometry":{"type":"Point","coordinates":[30.645613253000079,50.464689134000082]},"properties":{"objectid":17,"globalid":"{48c6ff70-a456-4f16-8bb3-32ed54438970}","code1":"mr18_127","name":"Лісова","name_eng":"Lisova","line":"Святошинсько-Броварська","line_eng":"Sviatoshynsko-Brovarska","transf_st":null}},{"type":"Feature","id":18,"geometry":{"type":"Point","coordinates":[30.404371678000075,50.45865387300006]},"properties":{"objectid":18,"globalid":"{ae2b319a-be30-4eb0-afd2-635312e9a264}","code1":"mr04_113","name":"Нивки","name_eng":"Nyvky","line":"Святошинсько-Броварська","line_eng":"Sviatoshynsko-Brovarska","transf_st":null}},{"type":"Feature","id":19,"geometry":{"type":"Point","coordinates":[30.432774236000057,50.476764185000036]},"properties":{"objectid":19,"globalid":"{9233b80a-b40c-467c-b693-766b41fefb51}","code1":"mg01_310","name":"Сирець","name_eng":"Syrets","line":"Сирецько-Печерська","line_eng":"Syretsko-Pecherska","transf_st":null}},{"type":"Feature","id":20,"geometry":{"type":"Point","coordinates":[30.452164757000048,50.473081001000025]},"properties":{"objectid":20,"globalid":"{84ada966-ff1d-4139-b2b6-2f0d759d4bbf}","code1":"mg02_311","name":"Дорогожичі","name_eng":"Dorohozhychi","line":"Сирецько-Печерська","line_eng":"Syretsko-Pecherska","transf_st":null}},{"type":"Feature","id":21,"geometry":{"type":"Point","coordinates":[30.483645538000076,50.461147865000044]},"properties":{"objectid":21,"globalid":"{e59a7deb-ac79-4d53-bbde-f8515f63d91c}","code1":"mg03_312","name":"Лук'янівська","name_eng":"Lukianivska","line":"Сирецько-Печерська","line_eng":"Syretsko-Pecherska","transf_st":null}},{"type":"Feature","id":22,"geometry":{"type":"Point","coordinates":[30.533491053000034,50.435738296000068]},"properties":{"objectid":22,"globalid":"{8c1d7924-4208-41dc-8518-168d3289e690}","code1":"mg06_316","name":"Кловська","name_eng":"Klovska","line":"Сирецько-Печерська","line_eng":"Syretsko-Pecherska","transf_st":null}},{"type":"Feature","id":23,"geometry":{"type":"Point","coordinates":[30.540787093000063,50.426049198000044]},"properties":{"objectid":23,"globalid":"{8ca71d40-5de0-45bf-a101-494d4e93e49f}","code1":"mg07_317","name":"Печерська","name_eng":"Pecherska","line":"Сирецько-Печерська","line_eng":"Syretsko-Pecherska","transf_st":null}},{"type":"Feature","id":24,"geometry":{"type":"Point","coordinates":[30.560501529000078,50.401821618000042]},"properties":{"objectid":24,"globalid":"{d97f8e9f-d7f7-4b38-80d1-aa67fc0fcc38}","code1":"mg09_319","name":"Видубичі","name_eng":"Vydubychi","line":"Сирецько-Печерська","line_eng":"Syretsko-Pecherska","transf_st":null}},{"type":"Feature","id":25,"geometry":{"type":"Point","coordinates":[30.604859284000042,50.394249291000051]},"properties":{"objectid":25,"globalid":"{bd37e469-380b-4853-a0e7-7e6c018f12c3}","code1":"mg10_321","name":"Славутич","name_eng":"Slavutych","line":"Сирецько-Печерська","line_eng":"Syretsko-Pecherska","transf_st":null}},{"type":"Feature","id":26,"geometry":{"type":"Point","coordinates":[30.61623221800005,50.395239310000079]},"properties":{"objectid":26,"globalid":"{dbc2817a-1957-4f4e-a749-2a1813853d07}","code1":"mg11_322","name":"Осокорки","name_eng":"Osokorky","line":"Сирецько-Печерська","line_eng":"Syretsko-Pecherska","transf_st":null}},{"type":"Feature","id":27,"geometry":{"type":"Point","coordinates":[30.634741974000065,50.397858298000074]},"properties":{"objectid":27,"globalid":"{ceba1322-a7af-4ea7-8d96-1e6d07d16822}","code1":"mg12_323","name":"Позняки","name_eng":"Pozniaky","line":"Сирецько-Печерська","line_eng":"Syretsko-Pecherska","transf_st":null}},{"type":"Feature","id":28,"geometry":{"type":"Point","coordinates":[30.652092883000023,50.400655596000036]},"properties":{"objectid":28,"globalid":"{ec490b67-b709-4071-8935-19311ffb5896}","code1":"mg13_324","name":"Харківська","name_eng":"Kharkivska","line":"Сирецько-Печерська","line_eng":"Syretsko-Pecherska","transf_st":null}},{"type":"Feature","id":29,"geometry":{"type":"Point","coordinates":[30.666912075000027,50.402946674000077]},"properties":{"objectid":29,"globalid":"{689d2828-851a-43bb-b5d1-3391850eb43a}","code1":"mg14_325","name":"Вирлиця","name_eng":"Vyrlytsia","line":"Сирецько-Печерська","line_eng":"Syretsko-Pecherska","transf_st":null}},{"type":"Feature","id":30,"geometry":{"type":"Point","coordinates":[30.684355268000047,50.403388234000033]},"properties":{"objectid":30,"globalid":"{e97f18e5-986f-4c38-88c0-a27688417a33}","code1":"mg15_326","name":"Бориспільська","name_eng":"Boryspilska","line":"Сирецько-Печерська","line_eng":"Syretsko-Pecherska","transf_st":null}},{"type":"Feature","id":31,"geometry":{"type":"Point","coordinates":[30.696166576000053,50.409474873000079]},"properties":{"objectid":31,"globalid":"{16048cd2-361b-48f3-a3b5-2c08de8810a2}","code1":"mg16_327","name":"Червоний хутір","name_eng":"Chervonyi khutir","line":"Сирецько-Печерська","line_eng":"Syretsko-Pecherska","transf_st":null}},{"type":"Feature","id":32,"geometry":{"type":"Point","coordinates":[30.454132879000042,50.367111700000066]},"properties":{"objectid":32,"globalid":"{f0005dd0-8e02-4523-a495-d29e7e56ae8e}","code1":"mb18_227","name":"Теремки","name_eng":"Teremky","line":"Оболонсько-Теремківська","line_eng":"Obolonsko-Teremkivska","transf_st":null}},{"type":"Feature","id":33,"geometry":{"type":"Point","coordinates":[30.468826268000043,50.376575700000046]},"properties":{"objectid":33,"globalid":"{2cd14ab2-b74c-4650-a597-a9c638059d25}","code1":"mb17_226","name":"Іподром","name_eng":"Ipodrom","line":"Оболонсько-Теремківська","line_eng":"Obolonsko-Teremkivska","transf_st":null}},{"type":"Feature","id":34,"geometry":{"type":"Point","coordinates":[30.477458890000037,50.382424809000042]},"properties":{"objectid":34,"globalid":"{95410970-a9c3-49a9-a872-9df9ab5e0839}","code1":"mb16_225","name":"Виставковий центр","name_eng":"Vystavkovyi tsentr","line":"Оболонсько-Теремківська","line_eng":"Obolonsko-Teremkivska","transf_st":null}},{"type":"Feature","id":35,"geometry":{"type":"Point","coordinates":[30.488195251000036,50.393321190000052]},"properties":{"objectid":35,"globalid":"{5fd2a74d-7ef6-4d9f-881c-64c5e9f3f377}","code1":"mb15_224","name":"Васильківська","name_eng":"Vasylkivska","line":"Оболонсько-Теремківська","line_eng":"Obolonsko-Teremkivska","transf_st":null}},{"type":"Feature","id":36,"geometry":{"type":"Point","coordinates":[30.508250052000051,50.397380875000067]},"properties":{"objectid":36,"globalid":"{cfb590bc-880d-477e-bb0a-d3d127203737}","code1":"mb14_223","name":"Голосіївська","name_eng":"Holosiivska","line":"Оболонсько-Теремківська","line_eng":"Obolonsko-Teremkivska","transf_st":null}},{"type":"Feature","id":37,"geometry":{"type":"Point","coordinates":[30.547320754000054,50.417027602000076]},"properties":{"objectid":37,"globalid":"{f8940903-aca5-47a8-8938-42268515426d}","code1":"mg08_318","name":"Звіринецька","name_eng":"Zvirynetska","line":"Сирецько-Печерська","line_eng":"Syretsko-Pecherska","transf_st":null}},{"type":"Feature","id":38,"geometry":{"type":"Point","coordinates":[30.516891656000041,50.404779508000047]},"properties":{"objectid":38,"globalid":"{7b6d81a2-6cb6-4b48-842b-5a5201f8e2bc}","code1":"mb13_222","name":"Деміївська","name_eng":"Demiivska","line":"Оболонсько-Теремківська","line_eng":"Obolonsko-Teremkivska","transf_st":null}},{"type":"Feature","id":39,"geometry":{"type":"Point","coordinates":[30.524894386000028,50.41394834700003]},"properties":{"objectid":39,"globalid":"{9bbe7d05-ac6d-46eb-a9e2-d0a1b743e85d}","code1":"mb12_221","name":"Либідська","name_eng":"Lybidska","line":"Оболонсько-Теремківська","line_eng":"Obolonsko-Teremkivska","transf_st":null}},{"type":"Feature","id":40,"geometry":{"type":"Point","coordinates":[30.52078935000003,50.421373119000066]},"properties":{"objectid":40,"globalid":"{82e72f9c-d253-4709-8b61-2783dd567bb9}","code1":"mb11_220","name":"Палац «Україна»","name_eng":"Palats «Ukraina»","line":"Оболонсько-Теремківська","line_eng":"Obolonsko-Teremkivska","transf_st":null}},{"type":"Feature","id":41,"geometry":{"type":"Point","coordinates":[30.516871331000061,50.43133309500007]},"properties":{"objectid":41,"globalid":"{e4ca329c-019b-4042-90c3-c1924ac237c9}","code1":"mb10_219","name":"Олімпійська","name_eng":"Olimpiiska","line":"Оболонсько-Теремківська","line_eng":"Obolonsko-Teremkivska","transf_st":null}},{"type":"Feature","id":42,"geometry":{"type":"Point","coordinates":[30.524269411000034,50.459337270000049]},"properties":{"objectid":42,"globalid":"{badf8bd0-4d9d-4134-905b-bc6dcca6942f}","code1":"mb07_216","name":"Поштова площа","name_eng":"Poshtova ploshcha","line":"Оболонсько-Теремківська","line_eng":"Obolonsko-Teremkivska","transf_st":null}},{"type":"Feature","id":43,"geometry":{"type":"Point","coordinates":[30.515010011000072,50.465900242000032]},"properties":{"objectid":43,"globalid":"{0ec8f6ca-1f83-4d77-9fe1-9990f6fa9565}","code1":"mb06_215","name":"Контрактова площа","name_eng":"Kontraktova ploshcha","line":"Оболонсько-Теремківська","line_eng":"Obolonsko-Teremkivska","transf_st":null}},{"type":"Feature","id":44,"geometry":{"type":"Point","coordinates":[30.503816634000032,50.474002226000039]},"properties":{"objectid":44,"globalid":"{efd663ad-266a-45e9-8a46-8632b0fa912e}","code1":"mb05_214","name":"Тараса Шевченка","name_eng":"Tarasa Shevchenka","line":"Оболонсько-Теремківська","line_eng":"Obolonsko-Teremkivska","transf_st":null}},{"type":"Feature","id":45,"geometry":{"type":"Point","coordinates":[30.497877202000041,50.486072183000033]},"properties":{"objectid":45,"globalid":"{b15b1b17-c633-4c31-9e32-3977ac619946}","code1":"mb04_213","name":"Почайна","name_eng":"Pochaina","line":"Оболонсько-Теремківська","line_eng":"Obolonsko-Teremkivska","transf_st":null}},{"type":"Feature","id":46,"geometry":{"type":"Point","coordinates":[30.498228019000067,50.501531743000044]},"properties":{"objectid":46,"globalid":"{49343200-4a54-48b4-bdda-6d38da698e7d}","code1":"mb03_212","name":"Оболонь","name_eng":"Obolon","line":"Оболонсько-Теремківська","line_eng":"Obolonsko-Teremkivska","transf_st":null}},{"type":"Feature","id":47,"geometry":{"type":"Point","coordinates":[30.498549038000078,50.512237302000074]},"properties":{"objectid":47,"globalid":"{3dda7595-ff10-4eb9-a698-7b2b07c457ae}","code1":"mb02_211","name":"Мінська","name_eng":"Minska","line":"Оболонсько-Теремківська","line_eng":"Obolonsko-Teremkivska","transf_st":null}},{"type":"Feature","id":48,"geometry":{"type":"Point","coordinates":[30.49886418400007,50.522726931000079]},"properties":{"objectid":48,"globalid":"{4db72bbe-bf13-4692-be67-159457124c5c}","code1":"mb01_210","name":"Героїв Дніпра","name_eng":"Heroiv Dnipra","line":"Оболонсько-Теремківська","line_eng":"Obolonsko-Teremkivska","transf_st":null}},{"type":"Feature","id":49,"geometry":{"type":"Point","coordinates":[30.519486788000052,50.43971502900007]},"properties":{"objectid":49,"globalid":"{bdbd274b-d2c4-4e71-89fb-b5d7766dff8c}","code1":"mg05_315","name":"Палац спорту","name_eng":"Palats sportu","line":"Сирецько-Печерська","line_eng":"Syretsko-Pecherska","transf_st":"mb09_218"}},{"type":"Feature","id":50,"geometry":{"type":"Point","coordinates":[30.524827687000027,50.447258239000064]},"properties":{"objectid":50,"globalid":"{318177c9-7653-48d7-a6f6-a5a2ae32aea0}","code1":"mr11_120","name":"Хрещатик","name_eng":"Khreshchatyk","line":"Святошинсько-Броварська","line_eng":"Sviatoshynsko-Brovarska","transf_st":"mb08_217"}},{"type":"Feature","id":51,"geometry":{"type":"Point","coordinates":[30.524625136000054,50.448367061000056]},"properties":{"objectid":51,"globalid":"{0d6587f3-9c3f-4d24-8c5f-14d30689c099}","code1":"mb08_217","name":"Майдан Незалежності","name_eng":"Maidan Nezalezhnosti","line":"Оболонсько-Теремківська","line_eng":"Obolonsko-Teremkivska","transf_st":"mr11_120"}},{"type":"Feature","id":52,"geometry":{"type":"Point","coordinates":[30.518624110000076,50.440364289000058]},"properties":{"objectid":52,"globalid":"{f54ca771-e70f-4bd2-80fd-e454729be7b2}","code1":"mb09_218","name":"Площа Українських Героїв","name_eng":"Ploshcha Ukrainskykh Heroiv","line":"Оболонсько-Теремківська","line_eng":"Obolonsko-Teremkivska","transf_st":"mg05_315"}}]}